,Station_Id,Name,Elevation,Physical_Element,Amount,Units,DateTime_Report,Unnamed: 7,Latitude,Longitude
0,CRLO3,CRATER LAKE NATIONAL PARK HQ,1974 meters,station snow depth,381.0,cm,2004-02-29 22,,42.8967,-122.1328
1,WSAC2,SKI AREA,3243 meters,station snow depth,309.88,cm,2004-02-29 20,,37.4833,-106.7906
2,ATAU1,ALTA,2661 meters,station snow depth,307.34,cm,2004-03-01 06,,40.5906,-111.6369
3,SNBU1,SNOWBIRD SKI RESORT,-9999 meters,station snow depth,246.38,cm,2004-03-01 06,,40.5833,-111.6667
4,MMNV1,MT. MANSFIELD,1204 meters,station snow depth,228.6,cm,2004-03-01 03,,44.5333,-72.8167
5,BHDU1,BRIAN HEAD SKI PATROL OFFICE,2978 meters,station snow depth,220.98,cm,2004-03-01 06,,37.6933,-112.8469
6,LDGC1,LODGEPOLE,2053 meters,station snow depth,182.88,cm,2004-03-01 12,,36.6044,-118.7325
7,GTHC2,GOTHIC,2886 meters,station snow depth,144.78,cm,2004-03-01 01,,38.9667,-106.9833
8,DIXI1,DIXIE,1713 meters,station snow depth,129.54,cm,2004-02-29 22,,45.5528,-115.4614
9,GOVO3,"GOVERNMENT CAMP, OR",1213 meters,station snow depth,116.84,cm,2004-02-29 22,,45.3014,-121.7411
10,MALC1,"2MI.E MAMMOTH LAKES, CA",2379 meters,station snow depth,111.76,cm,2004-02-29 21,,37.6478,-118.9617
11,BNWW4,BONDURANT,1992 meters,station snow depth,111.76,cm,2004-02-29 21,,43.2067,-110.3914
12,DAGN2,DAGGET PASS,2235 meters,station snow depth,109.22,cm,2004-02-29 21,,38.9783,-119.8914
13,CLXC2,CLIMAX COOP,3450 meters,station snow depth,106.68,cm,2004-02-29 21,,39.3764,-106.1994
14,BURW4,BURGESS JUNCTION,2451 meters,station snow depth,106.68,cm,2004-02-29 20,,44.7753,-107.5219
15,MOOW4,"MOOSE, WY",1972 meters,station snow depth,104.14,cm,2004-02-29 20,,43.6667,-110.7167
16,GLDM4,GLADSTONE,217 meters,station snow depth,101.6,cm,2004-02-29 19,,45.8128,-87.0619
17,KETI1,RANGER STATION,1795 meters,station snow depth,96.52,cm,2004-02-29 19,,43.6842,-114.3603
18,ASPC2,ASPEN COOP,2488 meters,station snow depth,93.98,cm,2004-03-01 01,,39.1881,-106.8361
19,WTPC2,"WINTER PARK, CO",2761 meters,station snow depth,91.44,cm,2004-02-29 21,,39.8903,-105.7617
20,BKCC2,BLACK CANYON OF THE GUNNISON,2484 meters,station snow depth,91.44,cm,2004-03-01 01,,38.5547,-107.6869
21,BIGN3,"10MI.ENE COLEBROOK, NH",678 meters,station snow depth,86.36,cm,2004-02-29 17,,44.95,-71.3167
22,BOON6,BLACK R NR,285 meters,station snow depth,86.36,cm,2004-02-29 18,,43.5167,-75.3
23,MSXC2,MESA 6S,2353 meters,station snow depth,83.82,cm,2004-03-01 01,,39.0886,-108.1178
24,MINC1,MINERAL,1486 meters,station snow depth,83.82,cm,2004-03-01 00,,40.3458,-121.6092
25,SVRW4,STAR VALLEY RANCH,-9999 meters,station snow depth,83.82,cm,2004-02-29 20,,42.9031,-110.9828
26,PEXM4,PHOENIX FARM,303 meters,station snow depth,83.82,cm,2004-02-29 19,,47.3717,-88.2581
27,HGHN6,HIGH MARKET,537 meters,station snow depth,81.28,cm,2004-02-29 16,,43.5667,-75.5167
28,MYSM8,MYSTIC LAKE,1995 meters,station snow depth,81.28,cm,2004-03-01 06,,45.2436,-109.7311
29,EYPW4,YELLOWSTONE NP EAST ENT,2119 meters,station snow depth,81.28,cm,2004-02-29 20,,44.5075,-110.0003
30,GCNA3,GRAND CANYON NP 2,2068 meters,station snow depth,78.74,cm,2004-03-01 06,,36.0528,-112.1503
31,CBUC2,CRESTED BUTTE COOP,2701 meters,station snow depth,76.2,cm,2004-03-01 01,,38.8786,-106.9761
32,BERI1,BERN,1818 meters,station snow depth,76.2,cm,2004-02-29 21,,42.3353,-111.385
33,NPTV1,"NEWPORT, VT",235 meters,station snow depth,73.66,cm,2004-02-29 18,,44.9333,-72.2
34,HQSI1,HEADQUARTERS,965 meters,station snow depth,73.66,cm,2004-02-29 20,,46.6311,-115.8086
35,STBC2,STEAMBOAT SPRINGS SPOTTER,-9999 meters,station snow depth,71.12,cm,2004-03-01 01,,40.4728,-106.8103
36,ISLV1,"ISLAND POND, VT",366 meters,station snow depth,71.12,cm,2004-02-29 20,,44.8167,-71.8667
37,ENFV1,"ENOSBURG FALLS, VT",128 meters,station snow depth,71.12,cm,2004-02-29 16,,44.9,-72.8167
38,PSCN6,"PISECO, NY",527 meters,station snow depth,71.12,cm,2004-02-29 18,,43.45,-74.5333
39,WGLM8,WEST GLACIER,961 meters,station snow depth,71.12,cm,2004-03-01 05,,48.5,-113.9844
40,MQT,"MARQUETTE, MI",-9999 meters,station snow depth,68.58,cm,2004-03-01 06,,46.5311,-87.5483
41,KETM4,PAINT LAKE,457 meters,station snow depth,68.58,cm,2004-03-01 07,,46.3247,-88.8803
42,PIRI1,PIERCE,939 meters,station snow depth,68.58,cm,2004-02-29 22,,46.4922,-115.8006
43,RANM1,"1MI.ENE RANGELEY, ME",466 meters,station snow depth,66.04,cm,2004-02-29 17,,44.9667,-70.65
44,YORN3,YORK POND ST FISH HATCHERY,466 meters,station snow depth,66.04,cm,2004-02-29 18,,44.5,-71.3333
45,CRMI1,"CRATERS OF THE MOON, ID",1797 meters,station snow depth,66.04,cm,2004-03-01 05,,43.465,-113.5581
46,MHKM4,MOHAWK,317 meters,station snow depth,66.04,cm,2004-03-01 07,,47.3058,-88.3639
47,HOKN6,HOOKER - 7MI.NNW,494 meters,station snow depth,63.5,cm,2004-02-29 17,,43.7667,-75.75
48,POWI1,POWELL,1076 meters,station snow depth,63.5,cm,2004-02-29 21,,46.51,-114.7111
49,MZAW1,MAZAMA,661 meters,station snow depth,63.5,cm,2004-03-01 09,,48.6047,-120.4497
50,Q67,TAHOE CG STN,1905 meters,station snow depth,60.96,cm,2004-02-29 21,,39.1822,-120.1192
51,ATMM4,ATLANTIC MINE 5NW,256 meters,station snow depth,60.96,cm,2004-02-29 23,,47.1544,-88.7167
52,OLNM8,OLNEY,965 meters,station snow depth,60.96,cm,2004-02-29 21,,48.5497,-114.5739
53,STNV1,"3MI.NE SUTTON, VT",305 meters,station snow depth,58.42,cm,2004-02-29 18,,44.6647,-72.0219
54,BRSW4,BOULDER REARING STN ON E FK R,2115 meters,station snow depth,58.42,cm,2004-02-29 21,,42.7167,-109.6833
55,CASI1,CASCADE 1 NW,1492 meters,station snow depth,58.42,cm,2004-03-01 00,,44.5228,-116.0481
56,BRAM1,BRASSUA LAKE,323 meters,station snow depth,58.42,cm,2004-02-29 18,,45.6667,-69.8167
57,CLKM4,"6MI.E CHAMPION, MI",463 meters,station snow depth,58.42,cm,2004-03-01 05,,46.5014,-87.8458
58,PSQW3,PRESQUE ISLE 4 SW,508 meters,station snow depth,58.42,cm,2004-02-29 19,,46.1992,-89.7728
59,GEOM8,GEORGETOWN LAKE,1972 meters,station snow depth,58.42,cm,2004-02-29 22,,46.1836,-113.33
60,POSC2,PAGOSA SPRINGS 12NW,2591 meters,station snow depth,55.88,cm,2004-02-29 20,,37.3833,-107.15
61,EUSM1,"EUSTIS, ME",384 meters,station snow depth,55.88,cm,2004-02-29 18,,45.2167,-70.4833
62,GHMN3,PINKHAM NOTCH,613 meters,station snow depth,55.88,cm,2004-02-29 18,,44.2667,-71.25
63,BETV1,"4MI.N BETHEL, VT",201 meters,station snow depth,55.88,cm,2004-02-29 18,,43.8833,-72.6333
64,JEFV1,SITE LOCATED NEXT TO BREWSTER RVR,335 meters,station snow depth,55.88,cm,2004-02-29 19,,44.5842,-72.7878
65,APXM4,S. 1.4MI. OTSEGO LAKE,447 meters,station snow depth,55.88,cm,2004-02-29 18,,44.9075,-84.7194
66,Y66W3,PHILLIPS,-9999 meters,station snow depth,55.88,cm,2004-02-29 19,,45.6333,-90.4
67,SLAM8,SULA 14 NE,1573 meters,station snow depth,55.88,cm,2004-03-01 00,,45.9106,-113.7383
68,ANDM1,ANDOVER 2,253 meters,station snow depth,53.34,cm,2004-02-29 18,,44.6531,-70.7947
69,WTNM4,"3MI.W WATTON, MI",435 meters,station snow depth,53.34,cm,2004-03-01 05,,46.5103,-88.6667
70,TNRM8,TURNER 11 N,909 meters,station snow depth,53.34,cm,2004-03-01 06,,48.9992,-108.3894
71,LOIN2,LAMOILLE 2N,1753 meters,station snow depth,50.8,cm,2004-03-01 00,,40.7447,-115.4861
72,ROBM1,"ROBBINSTON, ME",38 meters,station snow depth,50.8,cm,2004-03-01 11,,45.0858,-67.1222
73,HRTM1,"HARTFORD, ME",213 meters,station snow depth,50.8,cm,2004-02-29 18,,44.3747,-70.3172
74,RUM,RUMFORD ME,63 meters,station snow depth,50.8,cm,2004-02-29 18,,44.53306,-70.53305999999999
75,BLMN3,"2MI.NE BETHLEHEM, NH",360 meters,station snow depth,50.8,cm,2004-02-29 18,,44.3,-71.65
76,WSMN6,"3MI.W WEST MONROE, NY",155 meters,station snow depth,50.8,cm,2004-02-29 19,,43.2667,-76.05
77,CRIW3,HIGH FALLS,320 meters,station snow depth,50.8,cm,2004-02-29 19,,45.2833,-88.1919
78,STOW4,"STORY, WY",1549 meters,station snow depth,50.8,cm,2004-02-29 20,,44.5772,-106.8947
79,TRTM4,"TROUT LAKE, MI",256 meters,station snow depth,50.8,cm,2004-03-01 05,,46.1942,-85.0236
80,CKSM4,COOKS 2NE,239 meters,station snow depth,50.8,cm,2004-02-29 19,,45.9417,-86.4425
81,BAGM4,"2MI.W BARAGA, MI",280 meters,station snow depth,50.8,cm,2004-02-29 19,,46.7786,-88.5442
82,WSBM8,WESTBY,646 meters,station snow depth,50.8,cm,2004-02-29 20,,48.8708,-104.05
83,TRK,TRUCKEE AIRPORT,1798 meters,station snow depth,48.26,cm,2004-02-29 21,,39.3178,-120.1369
84,CHLV1,CHELSEA 1.9 NORTHWEST,439 meters,station snow depth,48.26,cm,2004-02-29 18,,44.0108,-72.4833
85,WRBN6,WARRENSBURG,226 meters,station snow depth,48.26,cm,2004-02-29 19,,43.5003,-73.7756
86,WASW3,"WASHINGTON ISLAND, WI",187 meters,station snow depth,48.26,cm,2004-02-29 19,,45.3667,-86.9333
87,FLKM4,FORTUNE LAKE,438 meters,station snow depth,48.26,cm,2004-02-29 19,,46.095,-88.4258
88,GGW,"GLASGOW, MT",692 meters,station snow depth,48.26,cm,2004-03-01 06,,48.2139,-106.6214
89,YAKM8,YAAK 9NNE,937 meters,station snow depth,48.26,cm,2004-03-01 12,,48.95,-115.6314
90,RLGW1,LONGMIRE RAINER NPS,842 meters,station snow depth,48.26,cm,2004-02-29 22,,46.7492,-121.8119
91,MCHN2,KYLE CANYON TOWN OF MT CHARLESTON,2195 meters,station snow depth,45.72,cm,2004-03-01 00,,36.2597,-115.6417
92,GREM1,SEBEC LAKE,116 meters,station snow depth,45.72,cm,2004-02-29 18,,45.25,-69.2333
93,NWSM1,"9MI.E NEW SHARON, ME",146 meters,station snow depth,45.72,cm,2004-02-29 18,,44.6333,-70.0
94,BRIM1,"3MI.NNW BRIDGTON, ME",158 meters,station snow depth,45.72,cm,2004-02-29 18,,44.0667,-70.75
95,MVLV1,"4MI.SSW MORRISVILLE, VT",232 meters,station snow depth,45.72,cm,2004-02-29 18,,44.5139,-72.6244
96,LKCM4,EXP FARM,378 meters,station snow depth,45.72,cm,2004-02-29 19,,44.3167,-85.2
97,MOUW3,MOUNTAIN 1 SW,287 meters,station snow depth,45.72,cm,2004-02-29 20,,45.1722,-88.4939
98,LILW3,LILY-2 NE,448 meters,station snow depth,45.72,cm,2004-02-29 20,,45.3272,-88.8331
99,COBW3,COLBY-5NE,410 meters,station snow depth,45.72,cm,2004-02-29 19,,44.9325,-90.2286
100,FLNW3,"FLORENCE, WI",398 meters,station snow depth,45.72,cm,2004-02-29 19,,45.925,-88.2569
101,LGKW3,LONG LAKE 3-NE,454 meters,station snow depth,45.72,cm,2004-02-29 19,,45.8825,-88.6314
102,CBYN8,"CROSBY, ND",595 meters,station snow depth,45.72,cm,2004-03-01 07,,48.9072,-103.2928
103,LYBM8,LIBBY 32 SSE,1097 meters,station snow depth,45.72,cm,2004-03-01 07,,47.9733,-115.2239
104,CNRC2,AMRAD,2679 meters,station snow depth,43.18,cm,2004-02-29 20,,39.5477,-105.3625
105,RWYC2,RIDGWAY 3NW,2377 meters,station snow depth,43.18,cm,2004-03-01 01,,38.1833,-107.7667
106,BETM1,P.O. BOX AT BETHEL,241 meters,station snow depth,43.18,cm,2004-02-29 18,,44.3167,-70.75
107,MAPM4,"MAPLE CITY, MI",223 meters,station snow depth,43.18,cm,2004-03-01 06,,44.8522,-85.8572
108,ASTW3,ATHELSTANE,293 meters,station snow depth,43.18,cm,2004-02-29 19,,45.425,-88.0575
109,TWNW3,TOWNSEND 2NW,421 meters,station snow depth,43.18,cm,2004-02-29 19,,45.3578,-88.6064
110,MRAM4,MORAN,212 meters,station snow depth,43.18,cm,2004-02-29 19,,45.9903,-84.8361
111,HURW3,"HURLEY, WI",268 meters,station snow depth,43.18,cm,2004-02-29 20,,46.4608,-90.1953
112,LOKW3,LAND O LAKES 10W,519 meters,station snow depth,43.18,cm,2004-02-29 20,,46.1917,-89.4308
113,TAKW3,RICE RESERVOIR NO. 2,445 meters,station snow depth,43.18,cm,2004-02-29 19,,45.5264,-89.7522
114,SMIM8,ST. MARIE,840 meters,station snow depth,43.18,cm,2004-03-01 06,,48.4089,-106.5144
115,LAUP1,1.5MI S OF RT 30 ON SMIT (LAUREL RIDGE),832 meters,station snow depth,40.64,cm,2004-02-29 17,,40.05,-79.2206
116,AMFU1,ALPINE,1545 meters,station snow depth,40.64,cm,2004-02-29 18,,40.4644,-111.7708
117,LENN2,GREAT BASIN NATL PARK,2082 meters,station snow depth,40.64,cm,2004-03-01 00,,39.0092,-114.2267
118,DFXM1,"1MI.WSW DOVER-FOXCROFT, ME",140 meters,station snow depth,40.64,cm,2004-02-29 18,,45.1833,-69.25
119,SLDN6,SLIDE MOUNTAIN,808 meters,station snow depth,40.64,cm,2004-02-29 18,,42.0167,-74.4167
120,SWLM4,SOUTHWEST HOUGHTON LAKE,349 meters,station snow depth,40.64,cm,2004-02-29 18,,44.3122,-84.7747
121,SHRW4,SHIRLEY BASIN MINE 345C,2150 meters,station snow depth,40.64,cm,2004-02-29 19,,42.3706,-106.105
122,ALGM1,ALLAGASH,182 meters,station snow depth,40.64,cm,2004-02-29 18,,47.0886,-69.025
123,WABM1,WASHBURN #2 17-9020-01,180 meters,station snow depth,40.64,cm,2004-02-29 18,,46.814,-68.163
124,BGBM4,"1MI.S BIG BAY, MI",207 meters,station snow depth,40.64,cm,2004-02-29 19,,46.8,-87.7333
125,AURW3,AURORA,369 meters,station snow depth,40.64,cm,2004-02-29 19,,45.77,-88.1181
126,Y55W3,RHINELANDER,478 meters,station snow depth,40.64,cm,2004-02-29 19,,45.6167,-89.35
127,HRRW3,"HARRISON, WI",-9999 meters,station snow depth,40.64,cm,2004-02-29 19,,45.4833,-89.5
128,TOWM5,"3MI.S TOWER, MN",445 meters,station snow depth,40.64,cm,2004-02-29 21,,47.7553,-92.2858
129,UNDN8,"UNDERWOOD, ND",616 meters,station snow depth,40.64,cm,2004-02-29 20,,47.4567,-101.1364
130,SWLM8,SWAN LAKE,945 meters,station snow depth,40.64,cm,2004-02-29 21,,47.9203,-113.8394
131,HANA3,"18MI.SW ALPINE, AZ",2792 meters,station snow depth,38.1,cm,2004-02-29 18,,33.6392,-109.3278
132,PLCC2,PLACEVILLE,2231 meters,station snow depth,38.1,cm,2004-03-01 01,,38.0161,-108.0542
133,RTHN2,RUTH,2088 meters,station snow depth,38.1,cm,2004-03-01 00,,39.2764,-114.9911
134,CORM1,"CORINNA, ME",67 meters,station snow depth,38.1,cm,2004-02-29 20,,44.9167,-69.2667
135,ALBM1,"ALBION, ME",98 meters,station snow depth,38.1,cm,2004-02-29 19,,44.4833,-69.4833
136,BRLN3,"BERLIN, NH",-9999 meters,station snow depth,38.1,cm,2004-02-29 19,,44.45,-71.1833
137,PESW3,"PESHTIGO, WI",183 meters,station snow depth,38.1,cm,2004-02-29 20,,45.0667,-87.7333
138,CVZW3,WISCONSIN PUBLIC SERVICE,-9999 meters,station snow depth,38.1,cm,2004-02-29 19,,45.2353,-88.0136
139,FISM1,"1MI.E FORT KENT, ME",-9999 meters,station snow depth,38.1,cm,2004-02-29 18,,47.25,-68.5833
140,STPM4,"8MI.WNW STEPHENSON, MI",216 meters,station snow depth,38.1,cm,2004-02-29 17,,45.45,-87.75
141,SSPW3,"SOLON SPRINGS, WI",329 meters,station snow depth,38.1,cm,2004-02-29 21,,46.35,-91.8167
142,EMBM5,"EMBARASS, MN",427 meters,station snow depth,38.1,cm,2004-02-29 21,,47.6581,-92.1958
143,DLH,"DULUTH, MN",435 meters,station snow depth,38.1,cm,2004-03-01 06,,46.8369,-92.2103
144,PLNW1,PLAIN,591 meters,station snow depth,38.1,cm,2004-03-01 09,,47.7811,-120.6508
145,WLYM1,WESLEY,125 meters,station snow depth,35.56,cm,2004-02-29 17,,44.9511,-67.6664
146,NCKN6,"RIPARIOUS, NY",271 meters,station snow depth,35.56,cm,2004-02-29 18,,43.6611,-73.8969
147,LOWN6,"LOWVILLE, NY",-9999 meters,station snow depth,35.56,cm,2004-02-29 18,,43.75,-75.5
148,KNGM4,KINGSLEY 2WSW,331 meters,station snow depth,35.56,cm,2004-03-01 05,,44.5697,-85.5717
149,Y82W3,BAILEYS HARBOR,346 meters,station snow depth,35.56,cm,2004-02-29 19,,45.06667,-87.13333
150,HUDW4,HUDSON,-9999 meters,station snow depth,35.56,cm,2004-02-29 20,,42.875,-108.5833
151,LNRW4,LANDER(DOWNTOWN)COOP STN,1622 meters,station snow depth,35.56,cm,2004-02-29 20,,42.8447,-108.7406
152,LFTI1,LIFTON PUMPING STATION,1806 meters,station snow depth,35.56,cm,2004-02-29 20,,42.1231,-111.3139
153,Y65W3,PARK FALLS,461 meters,station snow depth,35.56,cm,2004-02-29 19,,45.9333,-90.45
154,THRW3,"1MI.SSE HILES, WI",498 meters,station snow depth,35.56,cm,2004-02-29 20,,45.665,-88.9614
155,CULM8,CULBERSTON,592 meters,station snow depth,35.56,cm,2004-03-01 06,,48.1503,-104.5089
156,NDLC2,AMRAD,-9999 meters,station snow depth,33.02,cm,2004-02-29 23,,39.9644,-105.5189
157,WIFC2,WILLIAMS FORK DAM,2332 meters,station snow depth,33.02,cm,2004-02-29 23,,40.0375,-106.203
158,BRNM1,"6MI.WSW BROWNVILLE, ME",166 meters,station snow depth,33.02,cm,2004-02-29 18,,45.2833,-69.15
159,ROCV1,"ROCHESTER, VT",253 meters,station snow depth,33.02,cm,2004-02-29 18,,43.85,-72.8
160,POWV1,"POWNAL, VT",347 meters,station snow depth,33.02,cm,2004-02-29 18,,42.7833,-73.2167
161,WRSN6,BATAVIA-OATKA CK NR,524 meters,station snow depth,33.02,cm,2004-02-29 18,,41.75,-78.1333
162,ALPM4,5.5MI.NNW FRM ALPENA RGAL ARPT,222 meters,station snow depth,33.02,cm,2004-02-29 19,,45.1617,-83.5922
163,STAM4,"4MI.SSE STANDISH, MI",186 meters,station snow depth,33.02,cm,2004-02-29 17,,43.9333,-83.9333
164,AUW,WAUSAU MUNICIPAL AIRPORT,363 meters,station snow depth,33.02,cm,2004-02-29 18,,44.9258,-89.6256
165,FLDM5,"4MI.N FLOODWOOD, MN",381 meters,station snow depth,33.02,cm,2004-02-29 19,,47.0,-92.9167
166,BEUN8,"1MI.W BEULAH, ND",544 meters,station snow depth,33.02,cm,2004-03-01 07,,47.2667,-101.7833
167,WISM8,WISDOM,1847 meters,station snow depth,33.02,cm,2004-03-01 06,,45.6178,-113.4514
168,DGSQ1,DEGELIS,151 meters,station snow depth,32.0,cm,2004-02-29 19,,47.56667,-68.63333
169,CLRP1,"CLARENCE, PA",424 meters,station snow depth,30.48,cm,2004-02-29 17,,41.05,-77.9333
170,TOPM1,"TOPSFIELD, ME",189 meters,station snow depth,30.48,cm,2004-02-29 19,,45.4167,-67.7167
171,MLDM1,"MILO, ME",128 meters,station snow depth,30.48,cm,2004-02-29 18,,45.25,-69.0167
172,ALXN3,"ALEXANDRIA, NH",354 meters,station snow depth,30.48,cm,2004-02-29 18,,43.6403,-71.8022
173,BDDN3,"3MI.WSW BRADFORD, NH",252 meters,station snow depth,30.48,cm,2004-02-29 18,,43.2581,-72.0028
174,DELN6,"2MI.SSE DELHI, NY",439 meters,station snow depth,30.48,cm,2004-02-29 18,,42.25,-74.9
175,SPNN6,RESIDENCE OUTSIDE THE CITY,357 meters,station snow depth,30.48,cm,2004-02-29 22,,42.2167,-76.4667
176,MECN6,MECKLENBURG,451 meters,station snow depth,30.48,cm,2004-02-29 18,,42.4333,-76.75
177,WLSN6,"2MI.S WALES CENTER, NY",332 meters,station snow depth,30.48,cm,2004-02-29 18,,42.7417,-78.5097
178,PHPM4,LAKE HURON/DIAMONDALE CRK,183 meters,station snow depth,30.48,cm,2004-02-29 19,,43.8558,-82.9892
179,WBRM4,"3MI.SE WEST BRANCH, MI",277 meters,station snow depth,30.48,cm,2004-02-29 19,,44.2539,-84.2011
180,TCMM4,TRAVERSE CITY MUNSON,194 meters,station snow depth,30.48,cm,2004-02-29 18,,44.7606,-85.6442
181,Y88W3,MERRILL,-9999 meters,station snow depth,30.48,cm,2004-02-29 19,,45.1833,-89.7
182,PORM1,PORTAGE LAKE,250 meters,station snow depth,30.48,cm,2004-02-29 18,,46.8,-68.4833
183,BABM5,"BABBITT, MN",455 meters,station snow depth,30.48,cm,2004-02-29 19,,47.7103,-91.9442
184,Y72W3,CUMBERLAND,377 meters,station snow depth,30.48,cm,2004-02-29 19,,45.5333,-92.0167
185,PLEM8,PLEVNA,847 meters,station snow depth,30.48,cm,2004-03-01 08,,46.4178,-104.5164
186,DFCV1,DANBY FOUR CORNERS,404 meters,station snow depth,27.94,cm,2004-02-29 21,,43.3442,-73.0517
187,NFKC3,REFERENCE CLIMATE STATION,408 meters,station snow depth,27.94,cm,2004-02-29 18,,41.9725,-73.2208
188,NSKN6,NISKAYUNA,117 meters,station snow depth,27.94,cm,2004-02-29 19,,42.7958,-73.8767
189,LOCN6,"LOCKE, NY",-9999 meters,station snow depth,27.94,cm,2004-02-29 19,,42.6,-76.4
190,WLLP1,WELLSBORO 4 SW,554 meters,station snow depth,27.94,cm,2004-02-29 17,,41.7003,-77.3894
191,CDRP1,"COUDERSPORT, PA",503 meters,station snow depth,27.94,cm,2004-02-29 18,,41.7683,-78.0269
192,CARW3,CARLSVILLE,224 meters,station snow depth,27.94,cm,2004-02-29 20,,44.9592,-87.3425
193,GOMW3,ALGOMA,190 meters,station snow depth,27.94,cm,2004-02-29 20,,44.6147,-87.4369
194,STAW3,"STANLEY, WI",329 meters,station snow depth,27.94,cm,2004-02-29 19,,44.9667,-90.9333
195,RANU1,RANDOLPH COOPC,1911 meters,station snow depth,27.94,cm,2004-02-29 21,,41.6722,-111.1936
196,ARRW3,AURORA-4W,393 meters,station snow depth,27.94,cm,2004-02-29 19,,45.7903,-88.1786
197,LFKM5,LITTLE FORK RIVER,366 meters,station snow depth,27.94,cm,2004-02-29 20,,48.4,-93.55
198,RDLM5,CLEARWATER R @ RED LAKE FALLS,315 meters,station snow depth,27.94,cm,2004-02-29 19,,47.8833,-96.2833
199,CVLN8,"7MI.NW CAVALIER, ND",271 meters,station snow depth,27.94,cm,2004-02-29 19,,48.8631,-97.7014
200,EKLM8,EKALAKA,1044 meters,station snow depth,27.94,cm,2004-03-01 06,,45.8903,-104.5461
201,CLIM8,CLINTON 6 SE,1088 meters,station snow depth,27.94,cm,2004-03-01 11,,46.7169,-113.6672
202,MUNA3,MUNDS PARK,1972 meters,station snow depth,25.4,cm,2004-02-29 18,,34.9364,-111.6392
203,GCRC2,CABIN CREEK,3054 meters,station snow depth,25.4,cm,2004-03-01 06,,39.6552,-105.708
204,CHMN5,CHAMA. UPPER COLORADOO NTWK,2393 meters,station snow depth,25.4,cm,2004-03-01 05,,36.9169,-106.5772
205,BMKC2,BLUE MESA LAKE COOP,2329 meters,station snow depth,25.4,cm,2004-03-01 01,,38.4678,-107.1647
206,URYC2,QURAY SPOTTER,-9999 meters,station snow depth,25.4,cm,2004-03-01 01,,38.0261,-107.6725
207,TURM1,TURNER,172 meters,station snow depth,25.4,cm,2004-02-29 19,,44.2822,-70.2561
208,ESHM1,"EAST HIRAM, ME",-9999 meters,station snow depth,25.4,cm,2004-02-29 18,,43.8833,-70.8
209,NCON3,"NORTH CONWAY, NH",162 meters,station snow depth,25.4,cm,2004-02-29 18,,44.05,-71.1333
210,MALN6,"1MI.SW MALONE, NY",268 meters,station snow depth,25.4,cm,2004-02-29 18,,44.85,-74.3
211,COPN6,"1MI.S COOPERSTOWN, NY",366 meters,station snow depth,25.4,cm,2004-02-29 18,,42.7,-74.9167
212,MTRP1,"MONTROSE, PA",475 meters,station snow depth,25.4,cm,2004-02-29 18,,41.8333,-75.8667
213,NALN6,"2MI.SW NEW ALBION, NY",607 meters,station snow depth,25.4,cm,2004-02-29 18,,42.3167,-78.9167
214,FLNM4,CASE DRAIN-BOARTMAN CRK,194 meters,station snow depth,25.4,cm,2004-02-29 18,,43.9267,-83.0936
215,ELHW3,"ELKHART LAKE, WI",-9999 meters,station snow depth,25.4,cm,2004-02-29 20,,43.8333,-88.0167
216,WMAW3,"4MI.N WAUTOMA, WI",264 meters,station snow depth,25.4,cm,2004-02-29 19,,44.1167,-89.2833
217,JIMW3,AAWO,323 meters,station snow depth,25.4,cm,2004-02-29 20,,45.0667,-91.3333
218,BMRW3,"BLOOMER, WI",299 meters,station snow depth,25.4,cm,2004-02-29 19,,45.1,-91.4833
219,BRUM5,"7MI.ENE BRUNO, MN",258 meters,station snow depth,25.4,cm,2004-02-29 20,,46.2833,-92.5
220,HARM8,HARLEM 4 W,720 meters,station snow depth,25.4,cm,2004-03-01 06,,48.5517,-108.8589
221,REPW1,REPUBLIC RS,796 meters,station snow depth,25.4,cm,2004-03-01 09,,48.6442,-118.7361
222,WNPW1,WINTHROP 1 WSW,535 meters,station snow depth,25.4,cm,2004-03-01 09,,48.4531,-120.1936
223,FRZC2,"FRASER, CO",2609 meters,station snow depth,22.86,cm,2004-03-01 06,,39.9425,-105.8172
224,MORU1,MORGAN POWER & LIGHT,1551 meters,station snow depth,22.86,cm,2004-02-29 18,,41.0428,-111.67
225,BVVU1,BOUNTIFUL-VAL VERDA,1384 meters,station snow depth,22.86,cm,2004-02-29 21,,40.8544,-111.89
226,LEVC1,"LEE VINING, CA",2072 meters,station snow depth,22.86,cm,2004-02-29 22,,37.9567,-119.1194
227,WORM3,"2MI.S WORTHINGTON, MA",392 meters,station snow depth,22.86,cm,2004-02-29 18,,42.3833,-72.9167
228,BAKC3,NEW HARTFORD-1MI.E NEPAUG RIVER,198 meters,station snow depth,22.86,cm,2004-02-29 18,,41.8417,-73.0103
229,SUNV1,SUNDERLAND VILLAGE,274 meters,station snow depth,22.86,cm,2004-02-29 18,,43.0908,-73.1244
230,PHON6,PHOENICIA 2SW,461 meters,station snow depth,22.86,cm,2004-02-29 18,,42.0642,-74.3408
231,LAPP1,"LAPORTE, PA",599 meters,station snow depth,22.86,cm,2004-02-29 18,,41.4247,-76.4925
232,SBNP1,"3MI.SE SABINSVILLE, PA",61 meters,station snow depth,22.86,cm,2004-02-29 18,,41.8333,-77.4667
233,KANP1,"1MI.NNE KANE, PA",533 meters,station snow depth,22.86,cm,2004-02-29 18,,41.6833,-78.8
234,ETWM4,"EAST TAWAS, MI",179 meters,station snow depth,22.86,cm,2004-02-29 19,,44.2844,-83.5033
235,HICS2,RAPID CITY 20MI.WSW,1529 meters,station snow depth,22.86,cm,2004-03-01 07,,43.9333,-103.5667
236,RIVW4,NORTHERN UTILITIES MAINT SHOP,1509 meters,station snow depth,22.86,cm,2004-02-29 20,,43.0308,-108.3742
237,MLTM1,"MILLINOCKET, ME",110 meters,station snow depth,22.86,cm,2004-02-29 18,,45.65,-68.7
238,GLLM5,DAM,348 meters,station snow depth,22.86,cm,2004-02-29 20,,46.4119,-94.35
239,ISEM5,"8MI.N ISLE, MN",393 meters,station snow depth,22.86,cm,2004-02-29 21,,46.3197,-93.5014
240,PBAN8,SITE 1-3MI.N,241 meters,station snow depth,22.86,cm,2004-02-29 20,,48.9742,-97.2386
241,BZEM8,BOZEMAN MONTANA STATE UNIV,1497 meters,station snow depth,22.86,cm,2004-03-01 06,,45.6622,-111.0453
242,BKBW2,DAVIS,1163 meters,station snow depth,20.32,cm,2004-02-29 18,,39.0983,-79.4319
243,RYEC2,RYE 1 SW,2177 meters,station snow depth,20.32,cm,2004-03-01 09,,37.9139,-104.9478
244,ITRC2,INTER CANYON,2146 meters,station snow depth,20.32,cm,2004-02-29 23,,39.5736,-105.2197
245,HOLM1,"4MI.W WEST BUXTON, ME",96 meters,station snow depth,20.32,cm,2004-02-29 18,,43.65,-70.6667
246,LACN3,LACONIA,158 meters,station snow depth,20.32,cm,2004-02-29 18,,42.53083,-71.46417
247,WDSV1,"1MI.E WOODSTOCK, VT",183 meters,station snow depth,20.32,cm,2004-02-29 19,,43.6217,-72.4544
248,AHRM3,"1MI.WNW AMHERST, MA",46 meters,station snow depth,20.32,cm,2004-02-29 18,,42.3833,-72.5333
249,SHHN6,SCHOHARIE,224 meters,station snow depth,20.32,cm,2004-02-29 18,,42.665,-74.3036
250,SSQP1,"SUSQUEHANNA, PA",311 meters,station snow depth,20.32,cm,2004-02-29 20,,41.95,-75.6
251,SUVN6,SYRACUSE UNIVERSITY,171 meters,station snow depth,20.32,cm,2004-02-29 18,,43.0331,-76.1336
252,WHTN6,"WHITESVILLE, NY",524 meters,station snow depth,20.32,cm,2004-02-29 18,,42.0383,-77.7619
253,STVP1,GEO B STEVENSON LAKE,284 meters,station snow depth,20.32,cm,2004-02-29 18,,41.4,-78.0167
254,SHAW3,"SHAWANO, WI",-9999 meters,station snow depth,20.32,cm,2004-02-29 19,,44.5,-88.75
255,STPW3,"STEVENS POINT, WI",-9999 meters,station snow depth,20.32,cm,2004-02-29 19,,44.5167,-89.5167
256,FTMS2,RAPID CITY-27MI.NNW,1006 meters,station snow depth,20.32,cm,2004-03-01 07,,44.4,-103.4667
257,SUNO3,"SUNRIVER, OR",1274 meters,station snow depth,20.32,cm,2004-02-29 23,,43.8933,-121.4117
258,VANM1,"VAN BUREN, ME",139 meters,station snow depth,20.32,cm,2004-02-29 18,,47.1667,-67.9333
259,4BQ,BROADUS,924 meters,station snow depth,20.32,cm,2004-03-01 06,,45.4441,-105.4072
260,POGM8,PORT OF MORGAN,863 meters,station snow depth,20.32,cm,2004-03-01 06,,48.9997,-107.8322
261,STCP1,"STATE COLLEGE, PA",357 meters,station snow depth,17.78,cm,2004-02-29 18,,40.8,-77.8667
262,DOVC2,DOVE CREEK,2086 meters,station snow depth,17.78,cm,2004-03-01 01,,37.7672,-108.9119
263,NEPU1,NEPHI,1562 meters,station snow depth,17.78,cm,2004-03-01 06,,39.7125,-111.8322
264,MCGN2,"1MI.SE MCGILL, NV",1911 meters,station snow depth,17.78,cm,2004-03-01 00,,39.4014,-114.7764
265,WVLM1,"WATERVILLE, ME",22 meters,station snow depth,17.78,cm,2004-02-29 17,,44.5278,-69.6539
266,DURM1,"DURHAM, ME",44 meters,station snow depth,17.78,cm,2004-02-29 18,,43.9869,-70.055
267,BARN3,"1MI.SW BARNSTEAD, NH",236 meters,station snow depth,17.78,cm,2004-02-29 20,,43.3167,-71.2833
268,GRFM3,WATER TREATMENT PLANT,40 meters,station snow depth,17.78,cm,2004-02-29 19,,42.5667,-72.6
269,WTHN6,"WHITEHALL, NY",6 meters,station snow depth,17.78,cm,2004-02-29 19,,43.55,-73.4
270,COBN6,"2MI.ESE COBLESKILL, NY",356 meters,station snow depth,17.78,cm,2004-02-29 19,,42.6667,-74.4333
271,ITHN6,"3MI.ENE ITHACA, NY",293 meters,station snow depth,17.78,cm,2004-02-29 19,,42.45,-76.45
272,RVOP1,"RENOVO, PA",201 meters,station snow depth,17.78,cm,2004-02-29 18,,41.3333,-77.7333
273,EMPP1,"EMPORIUM, PA",317 meters,station snow depth,17.78,cm,2004-02-29 19,,41.5,-78.2333
274,CSBP1,COOKSBURG,442 meters,station snow depth,17.78,cm,2004-02-29 18,,41.3575,-79.2172
275,INAM4,"1MI.WNW IONIA, MI",227 meters,station snow depth,17.78,cm,2004-02-29 19,,42.9833,-85.0667
276,FORW3,FORESTVILLE-4E,212 meters,station snow depth,17.78,cm,2004-02-29 20,,44.6978,-87.3969
277,FRSW3,FRIENDSHIP 3E,293 meters,station snow depth,17.78,cm,2004-02-29 19,,43.975,-89.8308
278,HTFW3,HATFIELD 2N,275 meters,station snow depth,17.78,cm,2004-02-29 19,,44.4169,-90.7314
279,THMW4,SEWAGE TREATMENT PLANT,1315 meters,station snow depth,17.78,cm,2004-03-01 07,,43.65,-108.2
280,PIH,"POCATELLO/IDAHO FALLS, ID",-9999 meters,station snow depth,17.78,cm,2004-03-01 00,,42.9203,-112.5711
281,PATM1,SITE #2,238 meters,station snow depth,17.78,cm,2004-02-29 19,,46.0268,-68.5
282,LNCM5,LANCASTER,-9999 meters,station snow depth,17.78,cm,2004-02-29 21,,48.8583,-96.8047
283,MORM5,"2MI.NE MORRHEAD, MN",271 meters,station snow depth,17.78,cm,2004-03-01 00,,46.85,-96.75
284,ISN,SLOULIN FIELD-INTL APT,-9999 meters,station snow depth,17.78,cm,2004-03-01 06,,48.1781,-103.6419
285,BDDW1,BOUNDARY DAM,549 meters,station snow depth,17.78,cm,2004-03-01 00,,48.9908,-117.3594
286,UNRS2,WFO RAPID CITY,1029 meters,station snow depth,17.02,cm,2004-03-01 06,,44.0725,-103.2122
287,REDN5,"RED RIVER, NM",2646 meters,station snow depth,15.24,cm,2004-03-01 06,,36.7,-105.4
288,FLG,FLAGSTAFF AP,-9999 meters,station snow depth,15.24,cm,2004-02-29 18,,35.1442,-111.6664
289,FLSA3,FLAGSTAFF 4 SW,2172 meters,station snow depth,15.24,cm,2004-02-29 18,,35.1611,-111.7311
290,HUNP1,JUNIATA RIVER,219 meters,station snow depth,15.24,cm,2004-02-29 17,,40.5167,-78.0
291,PLBP1,"2MI.S PHILIPSBURG, PA",524 meters,station snow depth,15.24,cm,2004-02-29 18,,40.8722,-78.2153
292,ROXC2,ROXBOROUGH STATE PARK,1864 meters,station snow depth,15.24,cm,2004-02-29 23,,39.4286,-105.0703
293,TCPC2,TROUT CREEK PASS,2880 meters,station snow depth,15.24,cm,2004-02-29 23,,38.9064,-105.96
294,IGCC2,IGNACIO SPOTTER,-9999 meters,station snow depth,15.24,cm,2004-03-01 01,,37.0875,-107.5331
295,RUTV1,"RUTLAND, VT",189 meters,station snow depth,15.24,cm,2004-02-29 19,,43.6167,-72.9667
296,EMRN6,"1MI.N ELMIRA, NY",257 meters,station snow depth,15.24,cm,2004-02-29 18,,42.1,-76.8
297,GENN6,"3MI.W GENEVA, NY",219 meters,station snow depth,15.24,cm,2004-02-29 19,,42.8778,-77.0303
298,CORN6,"5MI.SSW CORNING, NY",287 meters,station snow depth,15.24,cm,2004-02-29 18,,42.0667,-77.05
299,ADDN6,"ADDISON, NY",300 meters,station snow depth,15.24,cm,2004-02-29 18,,42.1,-77.2339
300,CNTW3,"CLINTONVILLE, WI",-9999 meters,station snow depth,15.24,cm,2004-02-29 19,,44.6225,-88.765
301,PLOW3,PLOVER,331 meters,station snow depth,15.24,cm,2004-02-29 20,,44.4428,-89.5453
302,RAPS2,BELOW PACTOLA LAKE DAM,1439 meters,station snow depth,15.24,cm,2004-02-29 20,,44.0833,-103.45
303,ALBM8,ALBION 1N,1009 meters,station snow depth,15.24,cm,2004-02-29 21,,45.2088,-104.2647
304,WGSW4,SHERIDAN GIRL'S SCHOOL,1202 meters,station snow depth,15.24,cm,2004-02-29 20,,44.76,-106.9694
305,SLBW4,SUNLIGHT BASIN,2621 meters,station snow depth,15.24,cm,2004-02-29 20,,44.7614,-109.4542
306,INL,"INTERNATIONAL FALLS, MN",359 meters,station snow depth,15.24,cm,2004-03-01 06,,48.5664,-93.4031
307,KLLN8,"KILLDEER, ND",704 meters,station snow depth,15.24,cm,2004-02-29 22,,47.3697,-102.7633
308,POWM8,POWDERVILLE 8 NNE,853 meters,station snow depth,15.24,cm,2004-03-01 06,,45.8525,-105.035
309,HAWP1,"HAWLEY, PA",268 meters,station snow depth,13.97,cm,2004-02-29 18,,41.4833,-75.1667
310,PGLP1,GLENDALE LAKE,463 meters,station snow depth,12.7,cm,2004-02-29 19,,40.65,-78.55
311,FRSM2,"FROSTBURG, MD",661 meters,station snow depth,12.7,cm,2004-02-29 18,,39.6667,-78.9333
312,SMRP1,"SOMERSET, PA",640 meters,station snow depth,12.7,cm,2004-02-29 19,,40.0,-79.0833
313,DROC2,DURANGO SPOTTER,-9999 meters,station snow depth,12.7,cm,2004-03-01 01,,37.3056,-107.8375
314,CDPU1,CEDAR POINT,2060 meters,station snow depth,12.7,cm,2004-03-01 01,,37.7167,-109.0833
315,WPTM1,WESTPORT ISLAND,27 meters,station snow depth,12.7,cm,2004-02-29 19,,43.8881,-69.7089
316,GYX,"PORTLAND, ME",-9999 meters,station snow depth,12.7,cm,2004-02-29 18,,43.8925,-70.255
317,POLM1,"POLAND, ME",171 meters,station snow depth,12.7,cm,2004-02-29 18,,44.0075,-70.3619
318,GREN3,"GREENVILLE, NH",274 meters,station snow depth,12.7,cm,2004-02-29 21,,42.7833,-71.8
319,PIKN3,BENTON 5MI.SW,366 meters,station snow depth,12.7,cm,2004-02-29 19,,44.0333,-71.9333
320,ECHN6,"EAST CHATHAM, NY",282 meters,station snow depth,12.7,cm,2004-02-29 18,,42.4394,-73.5028
321,NBLN6,VISITORS CENTER FOR N.Y.S. POWER AUTHORI,335 meters,station snow depth,12.7,cm,2004-02-29 20,,42.4486,-74.4653
322,COVP1,"2MI.WSW COVINGTON, PA",532 meters,station snow depth,12.7,cm,2004-02-29 18,,41.7333,-77.1167
323,ANGN6,"ANGELICA, NY",433 meters,station snow depth,12.7,cm,2004-02-29 18,,42.3014,-78.0167
324,FRKN6,"18MI.N OLEAN, NY",482 meters,station snow depth,12.7,cm,2004-02-29 19,,42.3333,-78.4667
325,GDLM4,"GRAND LEDGE, MI",244 meters,station snow depth,12.7,cm,2004-02-29 18,,42.7667,-84.7667
326,HINW3,HINGHAM,237 meters,station snow depth,12.7,cm,2004-02-29 20,,43.6406,-87.9106
327,KIMW3,KIMBERLY,218 meters,station snow depth,12.7,cm,2004-02-29 20,,44.2672,-88.3361
328,APPW3,APPLETON NORTHWEST,236 meters,station snow depth,12.7,cm,2004-02-29 19,,44.2786,-88.4386
329,PLVW3,"PLOVER, WI",-9999 meters,station snow depth,12.7,cm,2004-02-29 19,,44.45,-89.5333
330,WIRW3,GRAND AVENUE B,305 meters,station snow depth,12.7,cm,2004-02-29 19,,44.4,-89.8167
331,NECW3,NECEDAH,282 meters,station snow depth,12.7,cm,2004-03-01 06,,43.9968,-90.0352
332,WABM5,WABASHA,213 meters,station snow depth,12.7,cm,2004-02-29 19,,44.385,-92.0486
333,FORM5,"4MI.SE FOREST LAKE, MN",287 meters,station snow depth,12.7,cm,2004-03-01 12,,45.2667,-92.9167
334,HOSS2,SITE 2,1077 meters,station snow depth,12.7,cm,2004-03-01 05,,43.4333,-103.4667
335,MIDI1,MIDDLE FORK LODGE,1366 meters,station snow depth,12.7,cm,2004-03-01 00,,44.7217,-115.0164
336,FAR,"FARGO, ND",274 meters,station snow depth,12.7,cm,2004-03-01 06,,46.9156,-96.8144
337,JTWN8,STATE HOSPITAL,447 meters,station snow depth,12.7,cm,2004-02-29 19,,46.8833,-98.6833
338,LGRN8,"1MI.SSW LIDGERWOOD, ND",351 meters,station snow depth,12.7,cm,2004-02-29 18,,46.0667,-97.1667
339,NWSN8,"5MI.NW NEW SALEM, ND",655 meters,station snow depth,12.7,cm,2004-02-29 21,,46.8925,-101.4897
340,WTDN8,"WATFORD CITY, ND",661 meters,station snow depth,12.7,cm,2004-02-29 20,,47.8,-103.2833
341,ANAM8,ANACONDA,1609 meters,station snow depth,12.7,cm,2004-03-01 06,,46.1314,-112.9569
342,LBGP1,"LEWISBURG, PA",143 meters,station snow depth,10.16,cm,2004-02-29 18,,40.9486,-76.8783
343,PGFP1,"PINE GROVE FURNACE, PA",270 meters,station snow depth,10.16,cm,2004-02-29 17,,40.0333,-77.3
344,ALOP1,ALTOONA 2,390 meters,station snow depth,10.16,cm,2004-02-29 18,,40.5267,-78.3694
345,PKKC2,"1MI.SE PARKER, CO",1800 meters,station snow depth,10.16,cm,2004-03-01 06,,39.5144,-104.75
346,LKWC2,"4MI.NW LAKEWOOD, CO",1719 meters,station snow depth,10.16,cm,2004-02-29 23,,39.7489,-105.1206
347,JEFC2,AMRAD,2855 meters,station snow depth,10.16,cm,2004-02-29 23,,39.2958,-105.7467
348,ANTC2,SOUTH PLATTE RIVER,2719 meters,station snow depth,10.16,cm,2004-02-29 23,,38.9933,-105.8919
349,MONU1,MONTICELLO,2079 meters,station snow depth,10.16,cm,2004-03-01 09,,37.8736,-109.3069
350,SLC,"SALT LAKE CITY, UT",-9999 meters,station snow depth,10.16,cm,2004-03-01 06,,40.7781,-111.9694
351,MOMN2,MOORMAN RANCH,1993 meters,station snow depth,10.16,cm,2004-03-01 00,,39.3344,-115.3192
352,BTHM1,"2MI.NW BATH, ME",8 meters,station snow depth,10.16,cm,2004-02-29 16,,43.9333,-69.85
353,MWN,MOUNT WASHINGTON,1909 meters,station snow depth,10.16,cm,2004-02-29 18,,44.2667,-71.3
354,SLSN3,"OUTSIDE & NW OF P.O @ PENNACOOK, NH",168 meters,station snow depth,10.16,cm,2004-02-29 18,,43.3553,-71.5006
355,PLYN3,"1MI.E PLYMOUTH, NH",201 meters,station snow depth,10.16,cm,2004-02-29 18,,43.7833,-71.65
356,HNRN3,"HANOVER, NH",162 meters,station snow depth,10.16,cm,2004-02-29 18,,43.7167,-72.2667
357,CPKN6,"1MI.NNW COPAKE, NY",168 meters,station snow depth,10.16,cm,2004-02-29 19,,42.1,-73.5333
358,SHKP1,"3MI.N SHICKSHINNY, PA",247 meters,station snow depth,10.16,cm,2004-02-29 18,,41.2,-76.15
359,BEPP1,BENTON 3 NE,357 meters,station snow depth,10.16,cm,2004-02-29 19,,41.2322,-76.3425
360,WVYN6,SUSQ. RIVER,-9999 meters,station snow depth,10.16,cm,2004-02-29 18,,41.9833,-76.5
361,FNDN6,"18MI.NE OLEAN, NY",500 meters,station snow depth,10.16,cm,2004-02-29 18,,42.1333,-78.2333
362,PALP1,"PORT ALLEGANY, PA",266 meters,station snow depth,10.16,cm,2004-02-29 18,,41.8167,-78.2833
363,RDWP1,"RIDGWAY, PA",415 meters,station snow depth,10.16,cm,2004-02-29 17,,41.4167,-78.75
364,SLMN6,"SALAMANCA, NY",-9999 meters,station snow depth,10.16,cm,2004-02-29 18,,42.1167,-78.75
365,FKNP1,FRANKLIN,302 meters,station snow depth,10.16,cm,2004-02-29 19,,41.3903,-79.8217
366,SBOP1,"3MI.WNW SPRINGBORO, PA",306 meters,station snow depth,10.16,cm,2004-02-29 18,,41.8333,-80.45
367,BNCM4,LAPEER SANILAC DR. SETTER DRAIN,247 meters,station snow depth,10.16,cm,2004-02-29 20,,43.2189,-82.99
368,BGRM4,WATER WORKS,283 meters,station snow depth,10.16,cm,2004-02-29 18,,43.7,-85.4833
369,FREM4,"4MI.WSW FREMONT, MI",244 meters,station snow depth,10.16,cm,2004-02-29 19,,43.45,-86.0333
370,MKG,"MUSKEGON, MI",-9999 meters,station snow depth,10.16,cm,2004-03-01 06,,43.1694,-86.2381
371,TAHW3,TAYCHEEDA,322 meters,station snow depth,10.16,cm,2004-02-29 19,,43.8339,-88.3469
372,MROW3,MONROE CENTER 1E,293 meters,station snow depth,10.16,cm,2004-02-29 19,,44.1119,-89.9192
373,BLAW3,BLAIR,267 meters,station snow depth,10.16,cm,2004-02-29 20,,44.2925,-91.2229
374,ALTM5,ALTURA 5W,264 meters,station snow depth,10.16,cm,2004-02-29 19,,44.0633,-92.0397
375,PTNM5,PRESTON,283 meters,station snow depth,10.16,cm,2004-02-29 21,,43.6725,-92.0747
376,HBTI4,W FK DES MOINES R,328 meters,station snow depth,10.16,cm,2004-02-29 19,,42.72,-94.2183
377,CENW4,"1MI.N CENTENNIAL, WY",2481 meters,station snow depth,10.16,cm,2004-03-01 07,,41.3128,-106.1264
378,SARW4,"SARATOGA, WY",2070 meters,station snow depth,10.16,cm,2004-03-01 06,,41.4528,-106.8053
379,SSHW4,"SHOSHONI, WY",1472 meters,station snow depth,10.16,cm,2004-02-29 20,,43.235,-108.1108
380,DBOW4,"DUBOIS, WY",2121 meters,station snow depth,10.16,cm,2004-02-29 21,,43.5667,-109.6333
381,DALM5,DALTON 3S MN,393 meters,station snow depth,10.16,cm,2004-02-29 21,,46.1319,-95.9214
382,GFK,GRAND FORKS INTERNATIONAL AIRPORT,257 meters,station snow depth,10.16,cm,2004-03-01 06,,47.9492,-97.1761
383,GRFN8,UNIVERSITY,253 meters,station snow depth,10.16,cm,2004-03-01 06,,47.9333,-97.0833
384,SBNM5,SABIN,281 meters,station snow depth,10.16,cm,2004-02-29 20,,46.7769,-96.6561
385,MONN8,"MONTPELIER, ND",421 meters,station snow depth,10.16,cm,2004-02-29 20,,46.7,-98.5833
386,GNDM8,GLENDIVE,633 meters,station snow depth,10.16,cm,2004-03-01 06,,47.1064,-104.7183
387,HDNM8,HARDIN,885 meters,station snow depth,10.16,cm,2004-03-01 06,,45.7322,-107.6081
388,BYZ,"BILLINGS, MT",971 meters,station snow depth,10.16,cm,2004-03-01 06,,45.7508,-108.5706
389,JOLM8,JOLIET,1128 meters,station snow depth,10.16,cm,2004-02-29 20,,45.4892,-108.9736
390,ESTW1,"1MI.NW EASTON, WA",661 meters,station snow depth,8.89,cm,2004-03-01 00,,47.2419,-121.1894
391,BCHN7,FRED'S STORE,1540 meters,station snow depth,7.62,cm,2004-02-29 18,,36.1878,-81.8736
392,FGZ,"FLAGSTAFF, AZ",-9999 meters,station snow depth,7.62,cm,2004-03-01 06,,35.23,-111.8214
393,BFFP1,"BUFFALO MILLS, PA",399 meters,station snow depth,7.62,cm,2004-02-29 18,,39.95,-78.65
394,DCRC2,DEER CREEK CANYON,2162 meters,station snow depth,7.62,cm,2004-02-29 23,,39.5717,-105.2167
395,EVGC2,"EVERGREEN, CO",2134 meters,station snow depth,7.62,cm,2004-02-29 21,,39.638,-105.315
396,ASIC2,ASPEN SPRINGS AMRAD,-9999 meters,station snow depth,7.62,cm,2004-02-29 23,,39.8333,-105.4833
397,GRTC2,"1MI.W GRANT, CO",2644 meters,station snow depth,7.62,cm,2004-02-29 20,,39.4607,-105.678
398,HORC2,HOHNHOLZ RANCH,2365 meters,station snow depth,7.62,cm,2004-02-29 21,,40.9678,-106.0
399,DLLC2,"1MI.E DILLON, CO",2763 meters,station snow depth,7.62,cm,2004-02-29 23,,39.6261,-106.0353
400,FILU1,FILLMORE,1561 meters,station snow depth,7.62,cm,2004-03-01 06,,38.9661,-112.3283
401,CECU1,CEDAR CITY,1829 meters,station snow depth,7.62,cm,2004-02-29 18,,37.7083,-113.0939
402,OASN2,OASIS,1777 meters,station snow depth,7.62,cm,2004-03-01 00,,41.0333,-114.4714
403,WOTM3,"3MI.WSW WEST OTIS, MA",415 meters,station snow depth,7.62,cm,2004-02-29 17,,42.1667,-73.15
404,RHBN6,STAATSBURG,97 meters,station snow depth,7.62,cm,2004-02-29 19,,41.8847,-73.8686
405,BLMN6,"2MI.SW BLOOMINGBURG, NY",366 meters,station snow depth,7.62,cm,2004-02-29 18,,41.5,-74.4667
406,CNTN6,"4MI.SE CANTON, NY",134 meters,station snow depth,7.62,cm,2004-02-29 19,,44.5667,-75.1167
407,MATP1,"MATAMORAS, PA",-9999 meters,station snow depth,7.62,cm,2004-02-29 18,,41.3667,-76.7
408,OLNN6,"OLEAN, NY",433 meters,station snow depth,7.62,cm,2004-02-29 18,,42.0833,-78.4528
409,BUF,"BUFFALO, NY",-9999 meters,station snow depth,7.62,cm,2004-02-29 18,,42.9414,-78.7192
410,WRRP1,"WARREN, PA",-9999 meters,station snow depth,7.62,cm,2004-02-29 18,,41.85,-79.1333
411,JSTN6,"4MI.NE JAMESTOWN, NY",381 meters,station snow depth,7.62,cm,2004-02-29 18,,42.1361,-79.2047
412,CLAP1,PINEY LAKE,338 meters,station snow depth,7.62,cm,2004-02-29 17,,41.1922,-79.4356
413,CAPM4,CAPAC 3W,256 meters,station snow depth,7.62,cm,2004-02-29 19,,43.0161,-82.9894
414,GPDM4,44TH STREET,-9999 meters,station snow depth,7.62,cm,2004-02-29 20,,42.9,-85.7667
415,SYNW3,SHEBOYGAN 1SW,201 meters,station snow depth,7.62,cm,2004-02-29 20,,43.7356,-87.735
416,GRB,"GREEN BAY, WI",205 meters,station snow depth,7.62,cm,2004-03-01 06,,44.4986,-88.1117
417,WDEW3,"WISCONSIN DELLS, WI",255 meters,station snow depth,7.62,cm,2004-02-29 19,,43.6167,-89.7833
418,NELW3,NEILLSVILLE 3SW,315 meters,station snow depth,7.62,cm,2004-02-29 19,,44.5289,-90.6381
419,EGNM5,ELGIN 1SSE,326 meters,station snow depth,7.62,cm,2004-02-29 19,,44.097,-92.2701
420,RST,"ROCHESTER, MN",-9999 meters,station snow depth,7.62,cm,2004-02-29 19,,43.9089,-92.4978
421,CIYI4,CHARLES CITY,309 meters,station snow depth,7.62,cm,2004-02-29 19,,43.0776,-92.6714
422,MPXM5,"CHANHASSEN, MN",288 meters,station snow depth,7.62,cm,2004-02-29 17,,44.8514,-93.565
423,BTTI4,"BRITT, IA",369 meters,station snow depth,7.62,cm,2004-02-29 19,,43.0833,-93.8014
424,RKWI4,"ROCKWELL CITY, IA",369 meters,station snow depth,7.62,cm,2004-02-29 19,,42.4,-94.6167
425,BOWN8,"BOWMAN, ND",902 meters,station snow depth,7.62,cm,2004-02-29 20,,46.1833,-103.4
426,VALM8,VALENTINE,887 meters,station snow depth,7.62,cm,2004-02-29 20,,47.3389,-108.4961
427,BTHN6,V.A. MEDICAL CENTER,341 meters,station snow depth,6.35,cm,2004-02-29 18,,42.35,-77.35
428,CLIN7,NCSU RESCH FARM,48 meters,station snow depth,5.08,cm,2004-02-29 19,,35.0247,-78.2758
429,YKNN7,"6MI.E YADKINVILLE, NC",267 meters,station snow depth,5.08,cm,2004-02-29 18,,36.1306,-80.5481
430,GERA3,GREER,2588 meters,station snow depth,5.08,cm,2004-03-01 06,,34.0019,-109.4625
431,WOLP1,RAYSTOWN BR OF JUNIATA,361 meters,station snow depth,5.08,cm,2004-02-29 18,,40.0333,-78.5167
432,BTLP1,BUTLER,332 meters,station snow depth,5.08,cm,2004-02-29 18,,40.8406,-79.9175
433,PAKC2,AMRAD,-9999 meters,station snow depth,5.08,cm,2004-02-29 20,,39.5517,-104.7297
434,EAGC2,EAGLECREST,-9999 meters,station snow depth,5.08,cm,2004-02-29 23,,39.6294,-104.7992
435,WUDC2,"2MI.SSE ENGLEWOOD, CO",1676 meters,station snow depth,5.08,cm,2004-02-29 23,,39.62,-104.97
436,WWPC2,AMRAD,2743 meters,station snow depth,5.08,cm,2004-02-29 20,,38.9833,-105.05
437,LKEC2,AMRAD,-9999 meters,station snow depth,5.08,cm,2004-02-29 20,,39.6833,-105.0689
438,WGEC2,"WHEAT RIDGE, CO",1666 meters,station snow depth,5.08,cm,2004-03-01 06,,39.7636,-105.0731
439,SSDC2,STRONTIA SPRINGS DAM,1780 meters,station snow depth,5.08,cm,2004-02-29 23,,39.4344,-105.1208
440,LGNC2,"2MI.W LONGMONT, CO",-9999 meters,station snow depth,5.08,cm,2004-02-29 20,,40.1667,-105.1333
441,GDNC2,RALSTON RESERVOIR,1798 meters,station snow depth,5.08,cm,2004-02-29 23,,39.8297,-105.2353
442,CHEC2,CHEESMAN,2097 meters,station snow depth,5.08,cm,2004-02-29 23,,39.2202,-105.278
443,LGEC2,AMRAD,-9999 meters,station snow depth,5.08,cm,2004-02-29 23,,38.9897,-105.3725
444,LGRC2,"8MI.SW LAKE GEORGE, CO",2597 meters,station snow depth,5.08,cm,2004-02-29 20,,38.9075,-105.47
445,RUTC2,"8MI.N RUSTIC, CO",2347 meters,station snow depth,5.08,cm,2004-02-29 23,,40.7022,-105.7106
446,DLNC2,"DEL NORTE, CO",2402 meters,station snow depth,5.08,cm,2004-02-29 20,,37.6667,-106.35
447,DNRC2,RIO GRANDE RIVER,2432 meters,station snow depth,5.08,cm,2004-02-29 19,,37.6894,-106.4606
448,VRCN2,"VIRGINIA CITY, NV",1932 meters,station snow depth,5.08,cm,2004-02-29 21,,39.3128,-119.6483
449,NBRM3,NORTHBRIDGE #2,96 meters,station snow depth,5.08,cm,2004-02-29 18,,42.1167,-71.6833
450,STMN6,"2MI.S STROMVILLE, NY",279 meters,station snow depth,5.08,cm,2004-02-29 16,,41.5333,-73.7333
451,SUXN4,"1MI.SE SUSSEX, NJ",119 meters,station snow depth,5.08,cm,2004-02-29 16,,41.2,-74.6
452,TWOP1,"1MI.ESE TOWANDA, PA",229 meters,station snow depth,5.08,cm,2004-02-29 18,,41.7503,-76.4167
453,CMGN6,"CHEMUNG, NY",247 meters,station snow depth,5.08,cm,2004-02-29 18,,42.0022,-76.635
454,WHCP1,WEST HICKORY,408 meters,station snow depth,5.08,cm,2004-02-29 18,,41.5764,-79.4106
455,SYGW3,SHEBOYGAN-SOUTH,-9999 meters,station snow depth,5.08,cm,2004-02-29 21,,43.7194,-87.7247
456,BABW3,"BARABOO, WI",-9999 meters,station snow depth,5.08,cm,2004-02-29 19,,43.4833,-89.6333
457,ARX,"LA CROSSE, WI",-9999 meters,station snow depth,5.08,cm,2004-02-29 19,,43.8228,-91.1919
458,RSRM5,ROCHESTER AP 2NE,387 meters,station snow depth,5.08,cm,2004-02-29 19,,43.9281,-92.4758
459,MCWI4,WINNEBAGO RIVER,344 meters,station snow depth,5.08,cm,2004-02-29 19,,43.15,-93.1925
460,MSCI4,MASON CITY #1,341 meters,station snow depth,5.08,cm,2004-02-29 18,,43.1528,-93.1967
461,AUDI4,"AUDUBON, IA",363 meters,station snow depth,5.08,cm,2004-02-29 19,,41.7167,-94.9333
462,ORLS2,HOT SPRINGS-10MI.E,902 meters,station snow depth,5.08,cm,2004-03-01 00,,43.4,-103.2667
463,AGAN1,"3MI.E AGATE, NE",1423 meters,station snow depth,5.08,cm,2004-03-01 06,,42.4244,-103.7347
464,DDEW4,NR JAY EM,1481 meters,station snow depth,5.08,cm,2004-02-29 20,,42.4881,-104.1564
465,LRMW4,LARAMIE 4SE,2252 meters,station snow depth,5.08,cm,2004-02-29 21,,41.2847,-105.5319
466,RHSM5,"ROTHSAY, MN",368 meters,station snow depth,5.08,cm,2004-02-29 21,,46.4833,-96.2667
467,SCOM5,MISSISSIPPI RIVER,-9999 meters,station snow depth,5.08,cm,2004-02-29 18,,45.55,-94.15
468,HVNN8,"HAVANA, ND",-9999 meters,station snow depth,5.08,cm,2004-02-29 21,,45.95,-97.6167
469,TRON8,"3MI.SSE TROTTERS, ND",738 meters,station snow depth,5.08,cm,2004-03-01 07,,47.2842,-103.9006
470,WRPM8,ROGERS PASS 9 NNE,1280 meters,station snow depth,5.08,cm,2004-02-29 21,,47.19,-112.2906
471,SULM8,SULA 3 ENE,1364 meters,station snow depth,5.08,cm,2004-03-01 07,,45.8478,-113.9269
472,DVPW1,DAVENPORT,744 meters,station snow depth,5.08,cm,2004-03-01 00,,47.6503,-118.1456
473,WLSN7,"WILSONVILLE, NC",77 meters,station snow depth,3.81,cm,2004-02-29 19,,35.7333,-79.0
474,HONN6,"HONEOYE, NY",244 meters,station snow depth,3.81,cm,2004-02-29 20,,42.7833,-77.5167
475,DNVV2,"DANVILLE, VA",125 meters,station snow depth,2.54,cm,2004-02-29 18,,36.5869,-79.3886
476,BOON7,"BOONE, NC",1049 meters,station snow depth,2.54,cm,2004-02-29 18,,36.2,-81.7
477,FLAN7,"2MI.SSE SWANNANOA, NC",1317 meters,station snow depth,2.54,cm,2004-02-29 19,,35.5733,-82.385
478,RAHN5,EL MORRO NATL MON,2202 meters,station snow depth,2.54,cm,2004-03-01 06,,35.05,-108.35
479,KEYW2,"3MI.E KEYSER, WV",274 meters,station snow depth,2.54,cm,2004-02-29 18,,39.4206,-79.005
480,SNOW2,SNOWSHOE,1452 meters,station snow depth,2.54,cm,2004-02-29 17,,38.4239,-79.9942
481,JLBC2,"JULESBURG, CO",1057 meters,station snow depth,2.54,cm,2004-03-01 06,,40.9867,-102.27
482,CASC2,"3MI.NE CASTLE ROCK, CO",1966 meters,station snow depth,2.54,cm,2004-02-29 23,,39.3947,-104.8056
483,CYSW4,CHEYENNE WFO,-9999 meters,station snow depth,2.54,cm,2004-03-01 06,,41.1516,-104.8063
484,SIAC2,AMRAD,-9999 meters,station snow depth,2.54,cm,2004-02-29 23,,39.3644,-104.9261
485,NRTC2,"2MI.NW NORTHGLENN, CO",1636 meters,station snow depth,2.54,cm,2004-02-29 23,,39.8988,-105.0133
486,HGIC2,"1MI.N HYGIENE, CO",1590 meters,station snow depth,2.54,cm,2004-02-29 23,,40.1994,-105.18
487,WTRC2,WATERDALE,1594 meters,station snow depth,2.54,cm,2004-02-29 21,,40.4256,-105.2103
488,CRHC2,CROW HILL AMRAD,-9999 meters,station snow depth,2.54,cm,2004-02-29 23,,39.4239,-105.4539
489,PARC2,PARADOX,-9999 meters,station snow depth,2.54,cm,2004-03-01 01,,38.3958,-108.9606
490,VELU1,VERNAL,1667 meters,station snow depth,2.54,cm,2004-03-01 01,,40.4269,-109.5531
491,B23,BATTLE MOUNTAIN 4SE,1384 meters,station snow depth,2.54,cm,2004-03-01 00,,40.6119,-116.8919
492,NEDM1,CAPE NEDDICK,40 meters,station snow depth,2.54,cm,2004-02-29 19,,43.2356,-70.635
493,ESTM1,EAST HIRAM,125 meters,station snow depth,2.54,cm,2004-02-29 17,,44.7236,-67.3817
494,SDLM3,"SUNDERLAND, MA",73 meters,station snow depth,2.54,cm,2004-02-29 18,,42.45,-72.55
495,CAIN6,"3MI.NW CAIRO, NY",149 meters,station snow depth,2.54,cm,2004-02-29 18,,42.3194,-74.0403
496,IPT,WILLIAMSPORT RGNL,158 meters,station snow depth,2.54,cm,2004-02-29 18,,41.2419,-76.9211
497,WMSP1,"1MI.E WILLIAMSPORT, PA",160 meters,station snow depth,2.54,cm,2004-03-01 09,,41.2486,-76.9833
498,ROC,"ROCHESTER, NY",-9999 meters,station snow depth,2.54,cm,2004-02-29 18,,43.1189,-77.6728
499,AVON6,GENESEE R NR - ROCHESTER,166 meters,station snow depth,2.54,cm,2004-02-29 18,,42.9208,-77.7556
500,PRTN6,ROC,356 meters,station snow depth,2.54,cm,2004-02-29 18,,42.5667,-78.05
501,IAG,INTERNATIONAL APT,178 meters,station snow depth,2.54,cm,2004-02-29 18,,43.1014,-78.95
502,GRR,"GRAND RAPIDS, MI",237 meters,station snow depth,2.54,cm,2004-03-01 06,,42.8939,-85.5447
503,ROCM4,"3MI.SW ROCKFORD, MI",191 meters,station snow depth,2.54,cm,2004-02-29 18,,43.0833,-85.6
504,Y08W3,JUNEAU,346 meters,station snow depth,2.54,cm,2004-02-29 19,,43.40611,-88.705
505,PORW3,"PORTAGE, WI",244 meters,station snow depth,2.54,cm,2004-02-29 20,,43.5319,-89.4378
506,LAVW3,LA VALLE,271 meters,station snow depth,2.54,cm,2004-02-29 21,,43.5825,-90.1319
507,RICW3,RICHLAND CENTER,223 meters,station snow depth,2.54,cm,2004-02-29 19,,43.3169,-90.3777
508,GMIW3,GAYS MILLS,-9999 meters,station snow depth,2.54,cm,2004-02-29 20,,43.3168,-90.8452
509,LSGI4,LANSING 4SE,253 meters,station snow depth,2.54,cm,2004-02-29 19,,43.3197,-91.1617
510,LSE,LA CROSSE MUNICIPAL AIRPORT,199 meters,station snow depth,2.54,cm,2004-02-29 18,,43.8792,-91.2561
511,LCFW3,FRENCH ISLAND,199 meters,station snow depth,2.54,cm,2004-02-29 19,,43.8669,-91.2725
512,DCRI4,DECORAH,262 meters,station snow depth,2.54,cm,2004-03-01 06,,43.3043,-91.7952
513,ELDI4,"ELDORA, IA",333 meters,station snow depth,2.54,cm,2004-02-29 19,,42.35,-93.1
514,EMMI4,"EMMETSBURG, IA",378 meters,station snow depth,2.54,cm,2004-02-29 19,,43.1,-94.6833
515,MLNM5,CHIPPEWA R,311 meters,station snow depth,2.54,cm,2004-03-01 06,,45.1333,-95.9333
516,SIXI4,"2MI.SE SIOUX CENTER, IA",415 meters,station snow depth,2.54,cm,2004-03-01 04,,43.05,-96.15
517,BROS2,"2MI.NE BROOKINGS, SD",500 meters,station snow depth,2.54,cm,2004-02-29 20,,44.3167,-96.7667
518,ENSM8,ENNIS,1510 meters,station snow depth,2.54,cm,2004-03-01 06,,45.3475,-111.7242
519,BIS,"BISMARCK, ND",504 meters,station snow depth,2.54,cm,2004-03-01 06,,46.7725,-100.7456
520,FSHS2,"5MI.SW SHADEHILL, SD",823 meters,station snow depth,2.54,cm,2004-02-29 20,,45.75,-102.1667
521,PMPM8,POMPEYS PILLAR 18 N,1056 meters,station snow depth,2.54,cm,2004-02-29 20,,46.2167,-108.0261
522,LKTN7,"2MI.SW LAKE TOXAWAY, NC",939 meters,station snow depth,0.0,cm,2004-02-29 19,,35.1086,-82.9608
523,MRYN5,BORIARTY,1896 meters,station snow depth,0.0,cm,2004-02-29 20,,35.0128,-106.045
524,STRN5,"STAR LAKE, NM",2024 meters,station snow depth,0.0,cm,2004-03-01 05,,35.9333,-107.4667
525,PGVP1,"SWATARA CK,SEWAGE TREATMENT PLT",152 meters,station snow depth,0.0,cm,2004-02-29 18,,40.5333,-76.4
526,SLGP1,"2MI.S SELINSGROVE, PA",13 meters,station snow depth,0.0,cm,2004-02-29 18,,40.7831,-76.8611
527,COHV2,"1MI.NNE COPPER HILL, VA",829 meters,station snow depth,0.0,cm,2004-02-29 18,,37.1,-80.1333
528,CLWV2,"CLINTWOOD, VA",543 meters,station snow depth,0.0,cm,2004-02-29 18,,37.15,-82.4667
529,LBF,"NORTH PLATTE, NE",847 meters,station snow depth,0.0,cm,2004-03-01 07,,41.1328,-100.7
530,GLD,"GOODLAND, KS",1111 meters,station snow depth,0.0,cm,2004-03-01 06,,39.3661,-101.7008
531,BSSN1,BUSHNELL 15S,1576 meters,station snow depth,0.0,cm,2004-02-29 20,,41.0103,-103.8769
532,CLHC2,CALHAN 5SW AMRAD,2008 meters,station snow depth,0.0,cm,2004-02-29 20,,39.0125,-104.385
533,BKFC2,BLACK FOREST AMRAD,2286 meters,station snow depth,0.0,cm,2004-02-29 20,,39.0889,-104.4758
534,PUB,"PUEBLO, CO",1418 meters,station snow depth,0.0,cm,2004-02-29 18,,38.2797,-104.5208
535,GRLC2,"2MI.S GREELEY, CO",1437 meters,station snow depth,0.0,cm,2004-03-01 05,,40.4022,-104.699
536,BUEW4,NR TWIN MTNS,2376 meters,station snow depth,0.0,cm,2004-02-29 21,,41.0706,-105.2519
537,BOUC2,"2MI.S BOULDER, CO",1672 meters,station snow depth,0.0,cm,2004-03-01 06,,39.9919,-105.2667
538,ROSC2,ROSITA AMRAD,-9999 meters,station snow depth,0.0,cm,2004-02-29 20,,38.1,-105.35
539,GRRC2,GROSS RESERVOIR,2429 meters,station snow depth,0.0,cm,2004-02-29 20,,39.9364,-105.3503
540,ETSC2,"1MI.SSE ESTES PARK, CO",2373 meters,station snow depth,0.0,cm,2004-02-29 23,,40.3689,-105.5136
541,BNVC2,"BUENA VISTA, CO",2417 meters,station snow depth,0.0,cm,2004-02-29 21,,38.85,-106.1278
542,MVIC2,"1MI.NW MONTE VISTA, CO",2328 meters,station snow depth,0.0,cm,2004-02-29 20,,37.5917,-106.1667
543,GWDC2,SHOSHONE,1807 meters,station snow depth,0.0,cm,2004-03-01 01,,39.5717,-107.2264
544,BTMC2,"BATTLEMENT MESA, CO",1631 meters,station snow depth,0.0,cm,2004-03-01 01,,39.35,-107.8333
545,DLTC2,DELTA 3E,1527 meters,station snow depth,0.0,cm,2004-03-01 01,,38.7539,-108.0278
546,GRJC2,GRAND JUNCTION COOP,1451 meters,station snow depth,0.0,cm,2004-03-01 01,,39.0422,-108.4658
547,GJT,"GRAND JUNCTION, CO",1481 meters,station snow depth,0.0,cm,2004-03-01 00,,39.12,-108.5244
548,CTZC2,CORTEZ COOP & UPPER COLORADO SITE,1875 meters,station snow depth,0.0,cm,2004-03-01 01,,37.3444,-108.5931
549,RNGC2,RANGELY,1612 meters,station snow depth,0.0,cm,2004-03-01 01,,40.0894,-108.7717
550,MKHC2,MACK,1372 meters,station snow depth,0.0,cm,2004-02-29 20,,39.2222,-108.8692
551,JARU1,JARVIE RANCH,1676 meters,station snow depth,0.0,cm,2004-03-01 01,,40.8994,-109.1794
552,4BL,"BLANDING, UT",1841 meters,station snow depth,0.0,cm,2004-03-01 00,,37.6131,-109.4794
553,ANPU1,ARCHES NP HQS COOP,1259 meters,station snow depth,0.0,cm,2004-03-01 01,,38.6163,-109.6191
554,CNDU1,CANYONLANDS-THE NEEDLES,1523 meters,station snow depth,0.0,cm,2004-03-01 01,,38.1506,-109.7822
555,NBMU1,NATURAL BRIDGES,1981 meters,station snow depth,0.0,cm,2004-03-01 01,,37.6094,-109.9772
556,RBLN2,RUBY LAKE,1832 meters,station snow depth,0.0,cm,2004-03-01 00,,40.2028,-115.4928
557,LKN,"ELKO, NV",-9999 meters,station snow depth,0.0,cm,2004-03-01 00,,40.86,-115.7425
558,ROCN3,"ROCHESTER, NH",70 meters,station snow depth,0.0,cm,2004-02-29 18,,43.3,-70.9833
559,EPPN3,"1MI.WSW EPPING, NH",49 meters,station snow depth,0.0,cm,2004-02-29 18,,43.0333,-71.0833
560,DERN3,DERRY,91 meters,station snow depth,0.0,cm,2004-02-29 17,,42.8661,-71.3247
561,POUN6,"4MI.NE POUGHKEEPSIE, NY",47 meters,station snow depth,0.0,cm,2004-02-29 20,,41.6278,-73.9167
562,MERP1,MERCER,372 meters,station snow depth,0.0,cm,2004-02-29 19,,41.2244,-80.2347
563,DTX,"DETROIT, MI",-9999 meters,station snow depth,0.0,cm,2004-03-01 06,,42.6869,-83.4717
564,ARBM4,UNIV OF MICH,274 meters,station snow depth,0.0,cm,2004-02-29 18,,42.3,-83.7167
565,ANQI3,"ANGOLA, IN",308 meters,station snow depth,0.0,cm,2004-02-29 18,,41.6397,-84.99
566,SHNW3,SHEBOYGAN 5MI.SW,217 meters,station snow depth,0.0,cm,2004-02-29 21,,43.6769,-87.7572
567,PTWW3,"PORT WASHINGTON, WI",183 meters,station snow depth,0.0,cm,2004-02-29 20,,43.3833,-87.8667
568,MKE,"MILWAUKEE, WI",204 meters,station snow depth,0.0,cm,2004-02-29 18,,42.9467,-87.8969
569,CDGW3,LAKEFIELD,-9999 meters,station snow depth,0.0,cm,2004-02-29 19,,43.2947,-87.9725
570,WETW3,"WEST ALLIS, WI",223 meters,station snow depth,0.0,cm,2004-02-29 19,,43.0172,-88.0017
571,MMCW3,MT. MARY COLLEGE,221 meters,station snow depth,0.0,cm,2004-02-29 19,,43.0728,-88.0306
572,UGRW3,"UNION GROVE, WI",-9999 meters,station snow depth,0.0,cm,2004-02-29 20,,42.7,-88.0322
573,WPKW3,SW-WHITNAL PARK,-9999 meters,station snow depth,0.0,cm,2004-02-29 19,,42.9167,-88.0333
574,MWC,LAWRENCE J TIMMERMAN AIRPORT,-9999 meters,station snow depth,0.0,cm,2004-02-29 19,,43.1108,-88.0344
575,BRLW3,"BRILLION, WI",247 meters,station snow depth,0.0,cm,2004-02-29 19,,44.1833,-88.0667
576,BGTW3,SEWAGE DISPOSAL PLANT,232 meters,station snow depth,0.0,cm,2004-02-29 19,,42.6833,-88.2
577,KEEW3,MERTON 1.5N,-9999 meters,station snow depth,0.0,cm,2004-02-29 19,,43.1669,-88.3042
578,HARW3,"2MI.W HARTFORD, WI",299 meters,station snow depth,0.0,cm,2004-02-29 19,,43.3167,-88.4
579,FDCW3,AAWO,242 meters,station snow depth,0.0,cm,2004-02-29 21,,43.6333,-88.45
580,ONCW3,SOUTH,266 meters,station snow depth,0.0,cm,2004-02-29 20,,43.1117,-88.4997
581,WODI2,WOODSTOCK,283 meters,station snow depth,0.0,cm,2004-02-29 19,,42.3628,-88.5314
582,MKX,WFO SULLIVAN,-9999 meters,station snow depth,0.0,cm,2004-02-29 19,,42.9681,-88.5492
583,WHTW3,"WHITEWATER, WI",244 meters,station snow depth,0.0,cm,2004-02-29 19,,42.8567,-88.7294
584,ARGW3,ARGYLE,251 meters,station snow depth,0.0,cm,2004-02-29 20,,42.7006,-89.0189
585,CTGW3,COTTAGE GROVE,264 meters,station snow depth,0.0,cm,2004-02-29 21,,43.0769,-89.1911
586,BROW3,"BRODHEAD, WI",241 meters,station snow depth,0.0,cm,2004-02-29 19,,42.6172,-89.3897
587,MAZW3,MAZOMANIE,232 meters,station snow depth,0.0,cm,2004-02-29 22,,43.1708,-89.8192
588,INDI4,"5MI.ENE INDEPENDANCE, IA",313 meters,station snow depth,0.0,cm,2004-02-29 18,,42.4833,-91.8167
589,BNWI4,"BOONE, IA",317 meters,station snow depth,0.0,cm,2004-02-29 20,,42.05,-93.9333
590,JFFI4,"JEFFERSON, IA",320 meters,station snow depth,0.0,cm,2004-02-29 18,,42.0144,-94.3797
591,SACI4,"SAC CITY, IA",366 meters,station snow depth,0.0,cm,2004-02-29 20,,42.4239,-94.9908
592,3SE,SPENCER 1N,405 meters,station snow depth,0.0,cm,2004-03-01 12,,43.1653,-95.1467
593,LSXI4,"LITTLE SIOUX, IA",312 meters,station snow depth,0.0,cm,2004-02-29 19,,41.8167,-96.0167
594,FSD,"SIOUX FALLS, SD",-9999 meters,station snow depth,0.0,cm,2004-03-01 12,,43.5875,-96.7294
595,KMBN1,"KIMBALL, NE",1465 meters,station snow depth,0.0,cm,2004-02-29 20,,41.2672,-103.6631
596,OFLW4,OLD FT LARAMIE HICTORIL SITE,1295 meters,station snow depth,0.0,cm,2004-02-29 18,,42.2053,-104.5558
597,CLAW4,CLARK 3NE CLARKS FORK RV NR,1247 meters,station snow depth,0.0,cm,2004-02-29 21,,44.9167,-109.1333
598,BOSI1,BOISE 7N,1184 meters,station snow depth,0.0,cm,2004-03-01 09,,43.7383,-116.2022
599,CBYC1,CANBY 3 SW,1314 meters,station snow depth,0.0,cm,2004-03-01 09,,41.4219,-120.9017
600,MNFO3,MARION FORKS FISH HATCHERY,754 meters,station snow depth,0.0,cm,2004-02-29 22,,44.6125,-121.9486
601,POLS2,MOBRIDGE-27MI.NNE,498 meters,station snow depth,0.0,cm,2004-03-01 07,,45.9,-100.2833
602,MRTM8,MARTINSDALE 3 NNW,1463 meters,station snow depth,0.0,cm,2004-03-01 07,,46.5,-110.3378
603,PSNM8,POLSON,917 meters,station snow depth,0.0,cm,2004-03-01 06,,47.675,-114.1906
